{
    "type": "FeatureCollection",
    "totalFeatures": 50,
    "features": [
        {
            "type": "Feature",
            "id": "punpunbike.1",
            "geometry": {
                "type": "Point",
                "coordinates": [
                    100.52914234134848,
                    13.733452428391782
                ]
            },
            "geometry_name": "the_geom",
            "properties": {
                "stationId": "01",
                "sta_name": "จามจุรีสแควร์",
                "sta_eng": "Chamchuri Square"
            }
        },
        {
            "type": "Feature",
            "id": "punpunbike.2",
            "geometry": {
                "type": "Point",
                "coordinates": [
                    100.52947462698395,
                    13.736696204124513
                ]
            },
            "geometry_name": "the_geom",
            "properties": {
                "stationId": "02",
                "sta_name": "จุฬา 1",
                "sta_eng": "Chula 1"
            }
        },
        {
            "type": "Feature",
            "id": "punpunbike.3",
            "geometry": {
                "type": "Point",
                "coordinates": [
                    100.53230315717714,
                    13.745990927087295
                ]
            },
            "geometry_name": "the_geom",
            "properties": {
                "stationId": "03",
                "sta_name": "สยามเซ็นเตอร์",
                "sta_eng": "Siam Center"
            }
        },
        {
            "type": "Feature",
            "id": "punpunbike.4",
            "geometry": {
                "type": "Point",
                "coordinates": [
                    100.5296879461574,
                    13.740177036380251
                ]
            },
            "geometry_name": "the_geom",
            "properties": {
                "stationId": "04",
                "sta_name": "จุฬา 2",
                "sta_eng": "Chula 2"
            }
        },
        {
            "type": "Feature",
            "id": "punpunbike.5",
            "geometry": {
                "type": "Point",
                "coordinates": [
                    100.54795340037802,
                    13.743390832731102
                ]
            },
            "geometry_name": "the_geom",
            "properties": {
                "stationId": "05",
                "sta_name": "เวฟเพลส",
                "sta_eng": "Wave Place"
            }
        },
        {
            "type": "Feature",
            "id": "punpunbike.6",
            "geometry": {
                "type": "Point",
                "coordinates": [
                    100.53561165551045,
                    13.723696920886729
                ]
            },
            "geometry_name": "the_geom",
            "properties": {
                "stationId": "06",
                "sta_name": "คอนแวนต์",
                "sta_eng": "Convent"
            }
        },
        {
            "type": "Feature",
            "id": "punpunbike.7",
            "geometry": {
                "type": "Point",
                "coordinates": [
                    100.54725498519973,
                    13.743212511026147
                ]
            },
            "geometry_name": "the_geom",
            "properties": {
                "stationId": "07",
                "sta_name": "ธนาคารกรุงศรีอยุธยา",
                "sta_eng": "Bank of Ayudhya"
            }
        },
        {
            "type": "Feature",
            "id": "punpunbike.8",
            "geometry": {
                "type": "Point",
                "coordinates": [
                    100.53956318808271,
                    13.73908816109707
                ]
            },
            "geometry_name": "the_geom",
            "properties": {
                "stationId": "08",
                "sta_name": "ราชดำริ",
                "sta_eng": "Ratchadamri"
            }
        },
        {
            "type": "Feature",
            "id": "punpunbike.9",
            "geometry": {
                "type": "Point",
                "coordinates": [
                    100.53354102372657,
                    13.722649813606449
                ]
            },
            "geometry_name": "the_geom",
            "properties": {
                "stationId": "09",
                "sta_name": "คอนโด The Met",
                "sta_eng": "The Met"
            }
        },
        {
            "type": "Feature",
            "id": "punpunbike.10",
            "geometry": {
                "type": "Point",
                "coordinates": [
                    100.52473750553287,
                    13.720037504664392
                ]
            },
            "geometry_name": "the_geom",
            "properties": {
                "stationId": "10",
                "sta_name": "โรงพยาบาลเซ็นต์หลุยส์",
                "sta_eng": "Siant Louis"
            }
        },
        {
            "type": "Feature",
            "id": "punpunbike.11",
            "geometry": {
                "type": "Point",
                "coordinates": [
                    100.5222874117578,
                    13.719188650648837
                ]
            },
            "geometry_name": "the_geom",
            "properties": {
                "stationId": "11",
                "sta_name": "โรงแรมอิสติน",
                "sta_eng": "Eastin"
            }
        },
        {
            "type": "Feature",
            "id": "punpunbike.12",
            "geometry": {
                "type": "Point",
                "coordinates": [
                    100.53411124228619,
                    13.745864409754107
                ]
            },
            "geometry_name": "the_geom",
            "properties": {
                "stationId": "12",
                "sta_name": "สยามพารากอน",
                "sta_eng": "Siam Paragon"
            }
        },
        {
            "type": "Feature",
            "id": "punpunbike.13",
            "geometry": {
                "type": "Point",
                "coordinates": [
                    100.5302950853432,
                    13.744069250937832
                ]
            },
            "geometry_name": "the_geom",
            "properties": {
                "stationId": "13",
                "sta_name": "เอ็มบีเค เซ็นเตอร์",
                "sta_eng": "MBK Center"
            }
        },
        {
            "type": "Feature",
            "id": "punpunbike.14",
            "geometry": {
                "type": "Point",
                "coordinates": [
                    100.53485991053896,
                    13.74543405106968
                ]
            },
            "geometry_name": "the_geom",
            "properties": {
                "stationId": "14",
                "sta_name": "สยามสแควร์",
                "sta_eng": "Siam Square"
            }
        },
        {
            "type": "Feature",
            "id": "punpunbike.15",
            "geometry": {
                "type": "Point",
                "coordinates": [
                    100.53083966457905,
                    13.7218796736805
                ]
            },
            "geometry_name": "the_geom",
            "properties": {
                "stationId": "15",
                "sta_name": "สาทรซิตี้ ทาวเวอร์",
                "sta_eng": "Sathorn City Towe"
            }
        },
        {
            "type": "Feature",
            "id": "punpunbike.16",
            "geometry": {
                "type": "Point",
                "coordinates": [
                    100.53058942477952,
                    13.722148674976825
                ]
            },
            "geometry_name": "the_geom",
            "properties": {
                "stationId": "16",
                "sta_name": "สาทรธานี",
                "sta_eng": "Sathorn Thani"
            }
        },
        {
            "type": "Feature",
            "id": "punpunbike.17",
            "geometry": {
                "type": "Point",
                "coordinates": [
                    100.54021135018651,
                    13.745335427093138
                ]
            },
            "geometry_name": "the_geom",
            "properties": {
                "stationId": "17",
                "sta_name": "เซ็นทรัลเวิล์ด 2",
                "sta_eng": "Central World 2"
            }
        },
        {
            "type": "Feature",
            "id": "punpunbike.18",
            "geometry": {
                "type": "Point",
                "coordinates": [
                    100.53952524188367,
                    13.744806443237515
                ]
            },
            "geometry_name": "the_geom",
            "properties": {
                "stationId": "18",
                "sta_name": "เซ็นทรัลเวิล์ด 1",
                "sta_eng": "Central World 1"
            }
        },
        {
            "type": "Feature",
            "id": "punpunbike.19",
            "geometry": {
                "type": "Point",
                "coordinates": [
                    100.53602803812777,
                    13.72338607696776
                ]
            },
            "geometry_name": "the_geom",
            "properties": {
                "stationId": "19",
                "sta_name": "สวนพลู",
                "sta_eng": "Suanplu"
            }
        },
        {
            "type": "Feature",
            "id": "punpunbike.20",
            "geometry": {
                "type": "Point",
                "coordinates": [
                    100.52977819657693,
                    13.7222463124081
                ]
            },
            "geometry_name": "the_geom",
            "properties": {
                "stationId": "20",
                "sta_name": "สาทรสแควร์ 1",
                "sta_eng": "Sathorn Square"
            }
        },
        {
            "type": "Feature",
            "id": "punpunbike.21",
            "geometry": {
                "type": "Point",
                "coordinates": [
                    100.52874441904439,
                    13.733763258969113
                ]
            },
            "geometry_name": "the_geom",
            "properties": {
                "stationId": "21",
                "sta_name": "สามย่าน",
                "sta_eng": "Sam Yarn"
            }
        },
        {
            "type": "Feature",
            "id": "punpunbike.22",
            "geometry": {
                "type": "Point",
                "coordinates": [
                    100.520055765021,
                    13.7190521525104
                ]
            },
            "geometry_name": "the_geom",
            "properties": {
                "stationId": "22",
                "sta_name": "นานมี",
                "sta_eng": "Nanmee"
            }
        },
        {
            "type": "Feature",
            "id": "punpunbike.23",
            "geometry": {
                "type": "Point",
                "coordinates": [
                    100.52618664010978,
                    13.720830067525197
                ]
            },
            "geometry_name": "the_geom",
            "properties": {
                "stationId": "23",
                "sta_name": "สาทร 12",
                "sta_eng": "Sathorn 12"
            }
        },
        {
            "type": "Feature",
            "id": "punpunbike.24",
            "geometry": {
                "type": "Point",
                "coordinates": [
                    100.53614495344405,
                    13.729966016808955
                ]
            },
            "geometry_name": "the_geom",
            "properties": {
                "stationId": "24",
                "sta_name": "รพ. จุฬา",
                "sta_eng": "Chula Hospital"
            }
        },
        {
            "type": "Feature",
            "id": "punpunbike.25",
            "geometry": {
                "type": "Point",
                "coordinates": [
                    100.53409380754616,
                    13.728278333888685
                ]
            },
            "geometry_name": "the_geom",
            "properties": {
                "stationId": "25",
                "sta_name": "สีลมคอมเพล็กซ์",
                "sta_eng": "Silom Complex"
            }
        },
        {
            "type": "Feature",
            "id": "punpunbike.26",
            "geometry": {
                "type": "Point",
                "coordinates": [
                    100.54000726116975,
                    13.743955185165278
                ]
            },
            "geometry_name": "the_geom",
            "properties": {
                "stationId": "26",
                "sta_name": "โรงพยาบาลตำรวจ",
                "sta_eng": "Police Hospital"
            }
        },
        {
            "type": "Feature",
            "id": "punpunbike.27",
            "geometry": {
                "type": "Point",
                "coordinates": [
                    100.52938437656456,
                    13.721812423308217
                ]
            },
            "geometry_name": "the_geom",
            "properties": {
                "stationId": "27",
                "sta_name": "สาทรสแควร์ 2",
                "sta_eng": "Sathorn Square 2"
            }
        },
        {
            "type": "Feature",
            "id": "punpunbike.28",
            "geometry": {
                "type": "Point",
                "coordinates": [
                    100.53271543750273,
                    13.722812708338049
                ]
            },
            "geometry_name": "the_geom",
            "properties": {
                "stationId": "28",
                "sta_name": "แสงทองธานี",
                "sta_eng": "Sangthong Thani"
            }
        },
        {
            "type": "Feature",
            "id": "punpunbike.29",
            "geometry": {
                "type": "Point",
                "coordinates": [
                    100.52947462698408,
                    13.721449769116687
                ]
            },
            "geometry_name": "the_geom",
            "properties": {
                "stationId": "29",
                "sta_name": "รัจนาการ",
                "sta_eng": "Rajanakarn"
            }
        },
        {
            "type": "Feature",
            "id": "punpunbike.30",
            "geometry": {
                "type": "Point",
                "coordinates": [
                    100.53944934948548,
                    13.724821235917672
                ]
            },
            "geometry_name": "the_geom",
            "properties": {
                "stationId": "30",
                "sta_name": "สาทรมาร์ท (เดิม)",
                "sta_eng": "Sathorn Mart"
            }
        },
        {
            "type": "Feature",
            "id": "punpunbike.31",
            "geometry": {
                "type": "Point",
                "coordinates": [
                    100.54502846632772,
                    13.72637942701633
                ]
            },
            "geometry_name": "the_geom",
            "properties": {
                "stationId": "31",
                "sta_name": "ไทย-เบลเยี่ยม ( MRT )",
                "sta_eng": "Thai-Belgium"
            }
        },
        {
            "type": "Feature",
            "id": "punpunbike.32",
            "geometry": {
                "type": "Point",
                "coordinates": [
                    100.53853043612318,
                    13.734016804759836
                ]
            },
            "geometry_name": "the_geom",
            "properties": {
                "stationId": "32",
                "sta_name": "สวนลุมพินี 1",
                "sta_eng": "Lumpini 1"
            }
        },
        {
            "type": "Feature",
            "id": "punpunbike.33",
            "geometry": {
                "type": "Point",
                "coordinates": [
                    100.5442736446373,
                    13.726607575611562
                ]
            },
            "geometry_name": "the_geom",
            "properties": {
                "stationId": "33",
                "sta_name": "สวนลุมพินี 3",
                "sta_eng": "Lumpini 3"
            }
        },
        {
            "type": "Feature",
            "id": "punpunbike.34",
            "geometry": {
                "type": "Point",
                "coordinates": [
                    100.54564381009709,
                    13.72595052698224
                ]
            },
            "geometry_name": "the_geom",
            "properties": {
                "stationId": "34",
                "sta_name": "บ่อนไก่",
                "sta_eng": "Bonkai"
            }
        },
        {
            "type": "Feature",
            "id": "punpunbike.35",
            "geometry": {
                "type": "Point",
                "coordinates": [
                    100.51946400942951,
                    13.723083203009526
                ]
            },
            "geometry_name": "the_geom",
            "properties": {
                "stationId": "35",
                "sta_name": "โรงแรมฮอลิเดย์อินน์",
                "sta_eng": "Holiday Inn"
            }
        },
        {
            "type": "Feature",
            "id": "punpunbike.36",
            "geometry": {
                "type": "Point",
                "coordinates": [
                    100.5215787408502,
                    13.723805516902367
                ]
            },
            "geometry_name": "the_geom",
            "properties": {
                "stationId": "36",
                "sta_name": "อาคารวรวัฒน์",
                "sta_eng": "Vorawat"
            }
        },
        {
            "type": "Feature",
            "id": "punpunbike.37",
            "geometry": {
                "type": "Point",
                "coordinates": [
                    100.54954508959486,
                    13.724013742149587
                ]
            },
            "geometry_name": "the_geom",
            "properties": {
                "stationId": "37",
                "sta_name": "ลุมพินี ทาวเวอร์",
                "sta_eng": "Lumpini Tower"
            }
        },
        {
            "type": "Feature",
            "id": "punpunbike.38",
            "geometry": {
                "type": "Point",
                "coordinates": [
                    100.5476436773475,
                    13.743146761089504
                ]
            },
            "geometry_name": "the_geom",
            "properties": {
                "stationId": "38",
                "sta_name": "ปาร์คเวนเจอร์",
                "sta_eng": "Park Ventures"
            }
        },
        {
            "type": "Feature",
            "id": "punpunbike.39",
            "geometry": {
                "type": "Point",
                "coordinates": [
                    100.54694013430449,
                    13.739126017779164
                ]
            },
            "geometry_name": "the_geom",
            "properties": {
                "stationId": "39",
                "sta_name": "ออลซีซั่นเพลส",
                "sta_eng": "All Season Place"
            }
        },
        {
            "type": "Feature",
            "id": "punpunbike.40",
            "geometry": {
                "type": "Point",
                "coordinates": [
                    100.53494503309366,
                    13.738675722111418
                ]
            },
            "geometry_name": "the_geom",
            "properties": {
                "stationId": "40",
                "sta_name": "ราชกรีฑาสโมสร",
                "sta_eng": "Royal Sport Club"
            }
        },
        {
            "type": "Feature",
            "id": "punpunbike.41",
            "geometry": {
                "type": "Point",
                "coordinates": [
                    100.53577779832824,
                    13.728948327528851
                ]
            },
            "geometry_name": "the_geom",
            "properties": {
                "stationId": "41",
                "sta_name": "ซิลลิค เฮ้าส์",
                "sta_eng": "Zuelling House"
            }
        },
        {
            "type": "Feature",
            "id": "punpunbike.42",
            "geometry": {
                "type": "Point",
                "coordinates": [
                    100.48508270188916,
                    13.745149137246344
                ]
            },
            "geometry_name": "the_geom",
            "properties": {
                "stationId": "42",
                "sta_name": "เคี่ยนหงวน",
                "sta_eng": "Kiangwan"
            }
        },
        {
            "type": "Feature",
            "id": "punpunbike.43",
            "geometry": {
                "type": "Point",
                "coordinates": [
                    100.48500886063684,
                    13.745053501759426
                ]
            },
            "geometry_name": "the_geom",
            "properties": {
                "stationId": "43",
                "sta_name": "สวนลุมพินี 2",
                "sta_eng": "Lumpini 2"
            }
        },
        {
            "type": "Feature",
            "id": "punpunbike.44",
            "geometry": {
                "type": "Point",
                "coordinates": [
                    100.53178421726508,
                    13.752582684453488
                ]
            },
            "geometry_name": "the_geom",
            "properties": {
                "stationId": "44",
                "sta_name": "ราชเทวี 1",
                "sta_eng": "Rathchathewi 1"
            }
        },
        {
            "type": "Feature",
            "id": "punpunbike.45",
            "geometry": {
                "type": "Point",
                "coordinates": [
                    100.53135347662653,
                    13.751054552903737
                ]
            },
            "geometry_name": "the_geom",
            "properties": {
                "stationId": "45",
                "sta_name": "ราชเทวี 2",
                "sta_eng": "Rathchathewi 2"
            }
        },
        {
            "type": "Feature",
            "id": "punpunbike.46",
            "geometry": {
                "type": "Point",
                "coordinates": [
                    100.54068619046195,
                    13.748759348315978
                ]
            },
            "geometry_name": "the_geom",
            "properties": {
                "stationId": "46",
                "sta_name": "อิเซตัน",
                "sta_eng": "Isetan"
            }
        },
        {
            "type": "Feature",
            "id": "punpunbike.47",
            "geometry": {
                "type": "Point",
                "coordinates": [
                    100.51684161939905,
                    13.737844864559628
                ]
            },
            "geometry_name": "the_geom",
            "properties": {
                "stationId": "47",
                "sta_name": "หัวลำโพง",
                "sta_eng": "Hualumpong"
            }
        },
        {
            "type": "Feature",
            "id": "punpunbike.48",
            "geometry": {
                "type": "Point",
                "coordinates": [
                    100.53046327930686,
                    13.7431886019604
                ]
            },
            "geometry_name": "the_geom",
            "properties": {
                "stationId": "48",
                "sta_name": "จุฬา 3",
                "sta_eng": "Chula 3"
            }
        },
        {
            "type": "Feature",
            "id": "punpunbike.49",
            "geometry": {
                "type": "Point",
                "coordinates": [
                    100.53133706745933,
                    13.745962037308578
                ]
            },
            "geometry_name": "the_geom",
            "properties": {
                "stationId": "49",
                "sta_name": "แยกปทุมวัน",
                "sta_eng": "Yak Pathum Wan"
            }
        },
        {
            "type": "Feature",
            "id": "punpunbike.50",
            "geometry": {
                "type": "Point",
                "coordinates": [
                    100.54256914239613,
                    13.744065266108272
                ]
            },
            "geometry_name": "the_geom",
            "properties": {
                "stationId": "50",
                "sta_name": "มาแตเดอีย์",
                "sta_eng": "Materdei"
            }
        }
    ],
    "crs": {
        "type": "name",
        "properties": {
            "name": "urn:ogc:def:crs:EPSG::32647"
        }
    }
}